[
  {
    "AreaServed": "Adelaide",
    "Frequency": 204.64,
    "Purpose": "Category 1",
    "Polarity": "V",
    "AntennaHeight": 121,
    "MaxERP": "50 kW",
    "LicenceNo": 1901330,
    "SiteName": "TXA Crafers Site Tower 115 Mount Lofty Summit Road CRAFERS",
    "Lat": -34.98111111,
    "Long": 138.7080556,
    "Site": "SA",
    "FreqBlock": "9B",
    "BSL": "",
    "Licence Area": ""
  },
  {
    "AreaServed": "Adelaide",
    "Frequency": 206.352,
    "Purpose": "Category 3",
    "Polarity": "V",
    "AntennaHeight": 121,
    "MaxERP": "50 kW",
    "LicenceNo": 1911857,
    "SiteName": "TXA Crafers Site Tower 115 Mount Lofty Summit Road CRAFERS",
    "Lat": -34.98111111,
    "Long": 138.7080556,
    "Site": "SA",
    "FreqBlock": "9C",
    "BSL": "",
    "Licence Area": ""
  },
  {
    "AreaServed": "Bacchus Marsh/Melton",
    "Frequency": 202.928,
    "Purpose": "Category 1",
    "Polarity": "V",
    "AntennaHeight": 52,
    "MaxERP": "500 W",
    "LicenceNo": 1901421,
    "SiteName": "Crown Castle Site Bald Hill  off Swans Rd DARLEY",
    "Lat": -37.64416667,
    "Long": 144.4102778,
    "Site": "VIC",
    "FreqBlock": "9A",
    "BSL": "",
    "Licence Area": ""
  },
  {
    "AreaServed": "Bacchus Marsh/Melton",
    "Frequency": 204.64,
    "Purpose": "Category 1",
    "Polarity": "V",
    "AntennaHeight": 52,
    "MaxERP": "500 W",
    "LicenceNo": 1901422,
    "SiteName": "Crown Castle Site Bald Hill  off Swans Rd DARLEY",
    "Lat": -37.64416667,
    "Long": 144.4102778,
    "Site": "VIC",
    "FreqBlock": "9B",
    "BSL": "",
    "Licence Area": ""
  },
  {
    "AreaServed": "Bacchus Marsh/Melton",
    "Frequency": 206.352,
    "Purpose": "Category 3",
    "Polarity": "V",
    "AntennaHeight": 52,
    "MaxERP": "500 W",
    "LicenceNo": 1911854,
    "SiteName": "Crown Castle Site Bald Hill  off Swans Rd DARLEY",
    "Lat": -37.64416667,
    "Long": 144.4102778,
    "Site": "VIC",
    "FreqBlock": "9C",
    "BSL": "",
    "Licence Area": ""
  },
  {
    "AreaServed": "Brisbane",
    "Frequency": 202.928,
    "Purpose": "Category 1",
    "Polarity": "V",
    "AntennaHeight": 192,
    "MaxERP": "50 kW",
    "LicenceNo": 1901423,
    "SiteName": "TXA T-Site Tower 445 Sir Samuel Griffith Drive MOUNT COOT-THA",
    "Lat": -27.46305556,
    "Long": 152.9480556,
    "Site": "QLD",
    "FreqBlock": "9A",
    "BSL": "",
    "Licence Area": ""
  },
  {
    "AreaServed": "Brisbane",
    "Frequency": 204.64,
    "Purpose": "Category 1",
    "Polarity": "V",
    "AntennaHeight": 192,
    "MaxERP": "50 kW",
    "LicenceNo": 1901424,
    "SiteName": "TXA T-Site Tower 445 Sir Samuel Griffith Drive MOUNT COOT-THA",
    "Lat": -27.46305556,
    "Long": 152.9480556,
    "Site": "QLD",
    "FreqBlock": "9B",
    "BSL": "",
    "Licence Area": ""
  },
  {
    "AreaServed": "Brisbane",
    "Frequency": 206.352,
    "Purpose": "Category 3",
    "Polarity": "V",
    "AntennaHeight": 192,
    "MaxERP": "50 kW",
    "LicenceNo": 1911853,
    "SiteName": "TXA T-Site Tower 445 Sir Samuel Griffith Drive MOUNT COOT-THA",
    "Lat": -27.46305556,
    "Long": 152.9480556,
    "Site": "QLD",
    "FreqBlock": "9C",
    "BSL": "",
    "Licence Area": ""
  },
  {
    "AreaServed": "Caboolture",
    "Frequency": 202.928,
    "Purpose": "Category 1",
    "Polarity": "V",
    "AntennaHeight": 42,
    "MaxERP": "500 W",
    "LicenceNo": 1901423,
    "SiteName": "Broadcast/Comms Tower  Digital Distribution Australia Site Mount Mee Rd MOUNT MEE",
    "Lat": -27.06555556,
    "Long": 152.7805556,
    "Site": "QLD",
    "FreqBlock": "9A",
    "BSL": "",
    "Licence Area": ""
  },
  {
    "AreaServed": "Caboolture",
    "Frequency": 204.64,
    "Purpose": "Category 1",
    "Polarity": "V",
    "AntennaHeight": 42,
    "MaxERP": "500 W",
    "LicenceNo": 1901424,
    "SiteName": "Broadcast/Comms Tower  Digital Distribution Australia Site Mount Mee Rd MOUNT MEE",
    "Lat": -27.06555556,
    "Long": 152.7805556,
    "Site": "QLD",
    "FreqBlock": "9B",
    "BSL": "",
    "Licence Area": ""
  },
  {
    "AreaServed": "Caboolture",
    "Frequency": 206.352,
    "Purpose": "Category 3",
    "Polarity": "V",
    "AntennaHeight": 42,
    "MaxERP": "500 W",
    "LicenceNo": 1911853,
    "SiteName": "Broadcast/Comms Tower  Digital Distribution Australia Site Mount Mee Rd MOUNT MEE",
    "Lat": -27.06555556,
    "Long": 152.7805556,
    "Site": "QLD",
    "FreqBlock": "9C",
    "BSL": "",
    "Licence Area": ""
  },
  {
    "AreaServed": "Campbelltown",
    "Frequency": 202.928,
    "Purpose": "Category 1",
    "Polarity": "V",
    "AntennaHeight": 42,
    "MaxERP": "500 W",
    "LicenceNo": 1901419,
    "SiteName": "Crown Castle Site Badgelly Hill  off Badgally Rd GREGORY HILLS",
    "Lat": -34.0425,
    "Long": 150.7841667,
    "Site": "NSW",
    "FreqBlock": "9A",
    "BSL": "",
    "Licence Area": ""
  },
  {
    "AreaServed": "Campbelltown",
    "Frequency": 204.64,
    "Purpose": "Category 1",
    "Polarity": "V",
    "AntennaHeight": 42,
    "MaxERP": "500 W",
    "LicenceNo": 1901420,
    "SiteName": "Crown Castle Site Badgelly Hill  off Badgally Rd GREGORY HILLS",
    "Lat": -34.0425,
    "Long": 150.7841667,
    "Site": "NSW",
    "FreqBlock": "9B",
    "BSL": "",
    "Licence Area": ""
  },
  {
    "AreaServed": "Campbelltown",
    "Frequency": 206.352,
    "Purpose": "Category 3",
    "Polarity": "V",
    "AntennaHeight": 42,
    "MaxERP": "500 W",
    "LicenceNo": 1911855,
    "SiteName": "Crown Castle Site Badgelly Hill  off Badgally Rd GREGORY HILLS",
    "Lat": -34.0425,
    "Long": 150.7841667,
    "Site": "NSW",
    "FreqBlock": "9C",
    "BSL": "",
    "Licence Area": ""
  },
  {
    "AreaServed": "Canberra",
    "Frequency": 201.072,
    "Purpose": "Category 1",
    "Polarity": "V",
    "AntennaHeight": 163,
    "MaxERP": "20 kW",
    "LicenceNo": 10503410,
    "SiteName": "Telecom Tower BLACK MOUNTAIN",
    "Lat": -35.27555556,
    "Long": 149.0977778,
    "Site": "ACT",
    "FreqBlock": "8D",
    "BSL": "",
    "Licence Area": ""
  },
  {
    "AreaServed": "Canberra",
    "Frequency": 206.352,
    "Purpose": "Category 3",
    "Polarity": "V",
    "AntennaHeight": 163,
    "MaxERP": "20 kW",
    "LicenceNo": 10224957,
    "SiteName": "Telecom Tower BLACK MOUNTAIN",
    "Lat": -35.27555556,
    "Long": 149.0977778,
    "Site": "ACT",
    "FreqBlock": "9C",
    "BSL": "",
    "Licence Area": ""
  },
  {
    "AreaServed": "Collaroy Plateau",
    "Frequency": 202.928,
    "Purpose": "Category 1",
    "Polarity": "V",
    "AntennaHeight": 32,
    "MaxERP": "300 W",
    "LicenceNo": 1901419,
    "SiteName": "Broadcast/Comms Monopole  Crown Castle Site Plateau Park  off Blandford St COLLAROY PLATEAU",
    "Lat": -33.72944444,
    "Long": 151.2922222,
    "Site": "NSW",
    "FreqBlock": "9A",
    "BSL": "",
    "Licence Area": ""
  },
  {
    "AreaServed": "Collaroy Plateau",
    "Frequency": 204.64,
    "Purpose": "Category 1",
    "Polarity": "V",
    "AntennaHeight": 32,
    "MaxERP": "300 W",
    "LicenceNo": 1901420,
    "SiteName": "Broadcast/Comms Monopole  Crown Castle Site Plateau Park  off Blandford St COLLAROY PLATEAU",
    "Lat": -33.72944444,
    "Long": 151.2922222,
    "Site": "NSW",
    "FreqBlock": "9B",
    "BSL": "",
    "Licence Area": ""
  },
  {
    "AreaServed": "Collaroy Plateau",
    "Frequency": 206.352,
    "Purpose": "Category 3",
    "Polarity": "V",
    "AntennaHeight": 32,
    "MaxERP": "300 W",
    "LicenceNo": 1911855,
    "SiteName": "Broadcast/Comms Monopole  Crown Castle Site Plateau Park  off Blandford St COLLAROY PLATEAU",
    "Lat": -33.72944444,
    "Long": 151.2922222,
    "Site": "NSW",
    "FreqBlock": "9C",
    "BSL": "",
    "Licence Area": ""
  },
  {
    "AreaServed": "Darwin",
    "Frequency": 202.928,
    "Purpose": "Category 1",
    "Polarity": "V",
    "AntennaHeight": 77,
    "MaxERP": "20 kW",
    "LicenceNo": 10503674,
    "SiteName": "Broadcast Australia Site 100 Deloraine Rd SHOAL BAY",
    "Lat": -12.41444444,
    "Long": 130.9691667,
    "Site": "NT",
    "FreqBlock": "9A",
    "BSL": "",
    "Licence Area": ""
  },
  {
    "AreaServed": "Darwin",
    "Frequency": 206.352,
    "Purpose": "Category 3",
    "Polarity": "V",
    "AntennaHeight": 77,
    "MaxERP": "20 kW",
    "LicenceNo": 10224729,
    "SiteName": "Broadcast Australia Site 100 Deloraine Rd SHOAL BAY",
    "Lat": -12.41444444,
    "Long": 130.9691667,
    "Site": "NT",
    "FreqBlock": "9C",
    "BSL": "",
    "Licence Area": ""
  },
  {
    "AreaServed": "Darwin City",
    "Frequency": 206.352,
    "Purpose": "Category 3",
    "Polarity": "V",
    "AntennaHeight": 43,
    "MaxERP": "500 W",
    "LicenceNo": 10224729,
    "SiteName": "Marrakai Building Lot 5440 (93) Smith Street DARWIN",
    "Lat": -12.45888889,
    "Long": 130.8369444,
    "Site": "NT",
    "FreqBlock": "9C",
    "BSL": "",
    "Licence Area": ""
  },
  {
    "AreaServed": "Gold Coast",
    "Frequency": 197.648,
    "Purpose": "Category 3",
    "Polarity": "V",
    "AntennaHeight": 44,
    "MaxERP": "25 kW",
    "LicenceNo": 12295932,
    "SiteName": "NTL Broadcast Site cnr North & Freemans Rds LOWER BEECHMONT",
    "Lat": -28.03361111,
    "Long": 153.2422222,
    "Site": "QLD",
    "FreqBlock": "8B",
    "BSL": "",
    "Licence Area": ""
  },
  {
    "AreaServed": "Gold Coast",
    "Frequency": 208.064,
    "Purpose": "Category 1",
    "Polarity": "V",
    "AntennaHeight": 58,
    "MaxERP": "25 kW",
    "LicenceNo": 11331530,
    "SiteName": "GCT Mt Tamborine Site 103m Tower Golf Course Road MOUNT TAMBORINE",
    "Lat": -27.96972222,
    "Long": 153.2133333,
    "Site": "QLD",
    "FreqBlock": "9D",
    "BSL": "",
    "Licence Area": ""
  },
  {
    "AreaServed": "Hobart",
    "Frequency": 202.928,
    "Purpose": "Category 1",
    "Polarity": "V",
    "AntennaHeight": 105,
    "MaxERP": "20 kW",
    "LicenceNo": 10501814,
    "SiteName": "Broadcast Australia Site Pinnacle Rd MT WELLINGTON",
    "Lat": -42.8975,
    "Long": 147.2363889,
    "Site": "TAS",
    "FreqBlock": "9A",
    "BSL": "",
    "Licence Area": ""
  },
  {
    "AreaServed": "Hobart",
    "Frequency": 206.352,
    "Purpose": "Category 3",
    "Polarity": "V",
    "AntennaHeight": 105,
    "MaxERP": "20 kW",
    "LicenceNo": 10224884,
    "SiteName": "Broadcast Australia Site Pinnacle Rd MT WELLINGTON",
    "Lat": -42.8975,
    "Long": 147.2363889,
    "Site": "TAS",
    "FreqBlock": "9C",
    "BSL": "",
    "Licence Area": ""
  },
  {
    "AreaServed": "Launceston",
    "Frequency": 197.648,
    "Purpose": "Category 3",
    "Polarity": "V",
    "AntennaHeight": 15,
    "MaxERP": "700 W",
    "LicenceNo": 12643483,
    "SiteName": "ABC Studios 45 Ann St LAUNCESTON",
    "Lat": -41.44055556,
    "Long": 147.1466667,
    "Site": "TAS",
    "FreqBlock": "8B",
    "BSL": "",
    "Licence Area": ""
  },
  {
    "AreaServed": "Mandurah",
    "Frequency": 199.36,
    "Purpose": "Category 1",
    "Polarity": "V",
    "AntennaHeight": 40,
    "MaxERP": "10 kW",
    "LicenceNo": 10675046,
    "SiteName": "Broadcast Site off Scarp Road Near Turner Hill PINJARRA",
    "Lat": -32.65027778,
    "Long": 115.9897222,
    "Site": "WA",
    "FreqBlock": "8C",
    "BSL": "",
    "Licence Area": ""
  },
  {
    "AreaServed": "Melbourne",
    "Frequency": 202.928,
    "Purpose": "Category 1",
    "Polarity": "V",
    "AntennaHeight": 107,
    "MaxERP": "50 kW",
    "LicenceNo": 1901421,
    "SiteName": "TXA Ornata Road Site Tower 12 Ornata Road MOUNT DANDENONG",
    "Lat": -37.8375,
    "Long": 145.3466667,
    "Site": "VIC",
    "FreqBlock": "9A",
    "BSL": "",
    "Licence Area": ""
  },
  {
    "AreaServed": "Melbourne",
    "Frequency": 204.64,
    "Purpose": "Category 1",
    "Polarity": "V",
    "AntennaHeight": 107,
    "MaxERP": "50 kW",
    "LicenceNo": 1901422,
    "SiteName": "TXA Ornata Road Site Tower 12 Ornata Road MOUNT DANDENONG",
    "Lat": -37.8375,
    "Long": 145.3466667,
    "Site": "VIC",
    "FreqBlock": "9B",
    "BSL": "",
    "Licence Area": ""
  },
  {
    "AreaServed": "Melbourne",
    "Frequency": 206.352,
    "Purpose": "Category 3",
    "Polarity": "V",
    "AntennaHeight": 119,
    "MaxERP": "50 kW",
    "LicenceNo": 1911854,
    "SiteName": "BAI Comms Site 116-118 Ridge Rd MOUNT DANDENONG",
    "Lat": -37.835,
    "Long": 145.3486111,
    "Site": "VIC",
    "FreqBlock": "9C",
    "BSL": "",
    "Licence Area": ""
  },
  {
    "AreaServed": "Melbourne City",
    "Frequency": 202.928,
    "Purpose": "Category 1",
    "Polarity": "V",
    "AntennaHeight": 260,
    "MaxERP": "400 W",
    "LicenceNo": 1901421,
    "SiteName": "Broadcast/Comms Tower  Roof 101 Collins Street MELBOURNE",
    "Lat": -37.815,
    "Long": 144.9705556,
    "Site": "VIC",
    "FreqBlock": "9A",
    "BSL": "",
    "Licence Area": ""
  },
  {
    "AreaServed": "Melbourne City",
    "Frequency": 204.64,
    "Purpose": "Category 1",
    "Polarity": "V",
    "AntennaHeight": 260,
    "MaxERP": "400 W",
    "LicenceNo": 1901422,
    "SiteName": "Broadcast/Comms Tower  Roof 101 Collins Street MELBOURNE",
    "Lat": -37.815,
    "Long": 144.9705556,
    "Site": "VIC",
    "FreqBlock": "9B",
    "BSL": "",
    "Licence Area": ""
  },
  {
    "AreaServed": "Melbourne City",
    "Frequency": 206.352,
    "Purpose": "Category 3",
    "Polarity": "V",
    "AntennaHeight": 260,
    "MaxERP": "400 W",
    "LicenceNo": 1911854,
    "SiteName": "Broadcast/Comms Tower  Roof 101 Collins Street MELBOURNE",
    "Lat": -37.815,
    "Long": 144.9705556,
    "Site": "VIC",
    "FreqBlock": "9C",
    "BSL": "",
    "Licence Area": ""
  },
  {
    "AreaServed": "Penrith",
    "Frequency": 202.928,
    "Purpose": "Category 1",
    "Polarity": "V",
    "AntennaHeight": 42,
    "MaxERP": "300 W",
    "LicenceNo": 1901419,
    "SiteName": "Broadcast Monopole  Aust Radio Network Site 754-768 Hawkesbury Rd HAWKESBURY HEIGHTS",
    "Lat": -33.6675,
    "Long": 150.6397222,
    "Site": "NSW",
    "FreqBlock": "9A",
    "BSL": "",
    "Licence Area": ""
  },
  {
    "AreaServed": "Penrith",
    "Frequency": 204.64,
    "Purpose": "Category 1",
    "Polarity": "V",
    "AntennaHeight": 42,
    "MaxERP": "300 W",
    "LicenceNo": 1901420,
    "SiteName": "Broadcast Monopole  Aust Radio Network Site 754-768 Hawkesbury Rd HAWKESBURY HEIGHTS",
    "Lat": -33.6675,
    "Long": 150.6397222,
    "Site": "NSW",
    "FreqBlock": "9B",
    "BSL": "",
    "Licence Area": ""
  },
  {
    "AreaServed": "Penrith",
    "Frequency": 206.352,
    "Purpose": "Category 3",
    "Polarity": "V",
    "AntennaHeight": 42,
    "MaxERP": "300 W",
    "LicenceNo": 1911855,
    "SiteName": "Broadcast Monopole  Aust Radio Network Site 754-768 Hawkesbury Rd HAWKESBURY HEIGHTS",
    "Lat": -33.6675,
    "Long": 150.6397222,
    "Site": "NSW",
    "FreqBlock": "9C",
    "BSL": "",
    "Licence Area": ""
  },
  {
    "AreaServed": "Perth",
    "Frequency": 204.64,
    "Purpose": "Category 1",
    "Polarity": "V",
    "AntennaHeight": 174,
    "MaxERP": "50 kW",
    "LicenceNo": 1901331,
    "SiteName": "TXA Carmel Site 255 Welshpool Road East CARMEL",
    "Lat": -32.01277778,
    "Long": 116.0616667,
    "Site": "WA",
    "FreqBlock": "9B",
    "BSL": "",
    "Licence Area": ""
  },
  {
    "AreaServed": "Perth",
    "Frequency": 206.352,
    "Purpose": "Category 3",
    "Polarity": "V",
    "AntennaHeight": 174,
    "MaxERP": "50 kW",
    "LicenceNo": 1911856,
    "SiteName": "TXA Carmel Site 255 Welshpool Road East CARMEL",
    "Lat": -32.01277778,
    "Long": 116.0616667,
    "Site": "WA",
    "FreqBlock": "9C",
    "BSL": "",
    "Licence Area": ""
  },
  {
    "AreaServed": "Perth City",
    "Frequency": 204.64,
    "Purpose": "Category 1",
    "Polarity": "V",
    "AntennaHeight": 257,
    "MaxERP": "300 W",
    "LicenceNo": 1901331,
    "SiteName": "Central Park 152 to 158 St Georges Terrace PERTH",
    "Lat": -31.95388889,
    "Long": 115.8555556,
    "Site": "WA",
    "FreqBlock": "9B",
    "BSL": "",
    "Licence Area": ""
  },
  {
    "AreaServed": "Perth City",
    "Frequency": 206.352,
    "Purpose": "Category 3",
    "Polarity": "V",
    "AntennaHeight": 257,
    "MaxERP": "300 W",
    "LicenceNo": 1911856,
    "SiteName": "Central Park 152 to 158 St Georges Terrace PERTH",
    "Lat": -31.95388889,
    "Long": 115.8555556,
    "Site": "WA",
    "FreqBlock": "9C",
    "BSL": "",
    "Licence Area": ""
  },
  {
    "AreaServed": "Perth Northern Beaches",
    "Frequency": 204.64,
    "Purpose": "Category 1",
    "Polarity": "V",
    "AntennaHeight": 54,
    "MaxERP": "300 W",
    "LicenceNo": 1901331,
    "SiteName": "Crown Castle Site Cnr Mulgrave Loop and Bergen Way MINDARIE",
    "Lat": -31.67805556,
    "Long": 115.7111111,
    "Site": "WA",
    "FreqBlock": "9B",
    "BSL": "",
    "Licence Area": ""
  },
  {
    "AreaServed": "Perth Northern Beaches",
    "Frequency": 206.352,
    "Purpose": "Category 3",
    "Polarity": "V",
    "AntennaHeight": 54,
    "MaxERP": "300 W",
    "LicenceNo": 1911856,
    "SiteName": "Crown Castle Site Cnr Mulgrave Loop and Bergen Way MINDARIE",
    "Lat": -31.67805556,
    "Long": 115.7111111,
    "Site": "WA",
    "FreqBlock": "9C",
    "BSL": "",
    "Licence Area": ""
  },
  {
    "AreaServed": "Port Melbourne",
    "Frequency": 202.928,
    "Purpose": "Category 1",
    "Polarity": "V",
    "AntennaHeight": 32,
    "MaxERP": "300 W",
    "LicenceNo": 1901421,
    "SiteName": "Broadcast/Comms Monopole  Pioneer Concrete Site 213 Boundary St PORT MELBOURNE",
    "Lat": -37.82472222,
    "Long": 144.9386111,
    "Site": "VIC",
    "FreqBlock": "9A",
    "BSL": "",
    "Licence Area": ""
  },
  {
    "AreaServed": "Port Melbourne",
    "Frequency": 204.64,
    "Purpose": "Category 1",
    "Polarity": "V",
    "AntennaHeight": 32,
    "MaxERP": "300 W",
    "LicenceNo": 1901422,
    "SiteName": "Broadcast/Comms Monopole  Pioneer Concrete Site 213 Boundary St PORT MELBOURNE",
    "Lat": -37.82472222,
    "Long": 144.9386111,
    "Site": "VIC",
    "FreqBlock": "9B",
    "BSL": "",
    "Licence Area": ""
  },
  {
    "AreaServed": "Port Melbourne",
    "Frequency": 206.352,
    "Purpose": "Category 3",
    "Polarity": "V",
    "AntennaHeight": 32,
    "MaxERP": "300 W",
    "LicenceNo": 1911854,
    "SiteName": "Broadcast/Comms Monopole  Pioneer Concrete Site 213 Boundary St PORT MELBOURNE",
    "Lat": -37.82472222,
    "Long": 144.9386111,
    "Site": "VIC",
    "FreqBlock": "9C",
    "BSL": "",
    "Licence Area": ""
  },
  {
    "AreaServed": "Sutherland",
    "Frequency": 202.928,
    "Purpose": "Category 1",
    "Polarity": "V",
    "AntennaHeight": 32,
    "MaxERP": "500 W",
    "LicenceNo": 1901419,
    "SiteName": "Vodafone-Optus-Telstra Site Jannali Reserve off Coolgardi Place BONNET BAY",
    "Lat": -34.01833333,
    "Long": 151.0544444,
    "Site": "NSW",
    "FreqBlock": "9A",
    "BSL": "",
    "Licence Area": ""
  },
  {
    "AreaServed": "Sutherland",
    "Frequency": 204.64,
    "Purpose": "Category 1",
    "Polarity": "V",
    "AntennaHeight": 32,
    "MaxERP": "500 W",
    "LicenceNo": 1901420,
    "SiteName": "Vodafone-Optus-Telstra Site Jannali Reserve off Coolgardi Place BONNET BAY",
    "Lat": -34.01833333,
    "Long": 151.0544444,
    "Site": "NSW",
    "FreqBlock": "9B",
    "BSL": "",
    "Licence Area": ""
  },
  {
    "AreaServed": "Sutherland",
    "Frequency": 206.352,
    "Purpose": "Category 3",
    "Polarity": "V",
    "AntennaHeight": 32,
    "MaxERP": "300 W",
    "LicenceNo": 1911855,
    "SiteName": "Vodafone-Optus-Telstra Site Jannali Reserve off Coolgardi Place BONNET BAY",
    "Lat": -34.01833333,
    "Long": 151.0544444,
    "Site": "NSW",
    "FreqBlock": "9C",
    "BSL": "",
    "Licence Area": ""
  },
  {
    "AreaServed": "Sydney",
    "Frequency": 202.928,
    "Purpose": "Category 1",
    "Polarity": "V",
    "AntennaHeight": 196,
    "MaxERP": "50 kW",
    "LicenceNo": 1901419,
    "SiteName": "TXA Artarmon Site Tower 192-196 Hampden Road ARTARMON",
    "Lat": -33.80555556,
    "Long": 151.1808333,
    "Site": "NSW",
    "FreqBlock": "9A",
    "BSL": "",
    "Licence Area": ""
  },
  {
    "AreaServed": "Sydney",
    "Frequency": 204.64,
    "Purpose": "Category 1",
    "Polarity": "V",
    "AntennaHeight": 196,
    "MaxERP": "50 kW",
    "LicenceNo": 1901420,
    "SiteName": "TXA Artarmon Site Tower 192-196 Hampden Road ARTARMON",
    "Lat": -33.80555556,
    "Long": 151.1808333,
    "Site": "NSW",
    "FreqBlock": "9B",
    "BSL": "",
    "Licence Area": ""
  },
  {
    "AreaServed": "Sydney",
    "Frequency": 206.352,
    "Purpose": "Category 3",
    "Polarity": "V",
    "AntennaHeight": 196,
    "MaxERP": "50 kW",
    "LicenceNo": 1911855,
    "SiteName": "TXA Artarmon Site Tower 192-196 Hampden Road ARTARMON",
    "Lat": -33.80555556,
    "Long": 151.1808333,
    "Site": "NSW",
    "FreqBlock": "9C",
    "BSL": "",
    "Licence Area": ""
  },
  {
    "AreaServed": "Sydney City",
    "Frequency": 202.928,
    "Purpose": "Category 1",
    "Polarity": "V",
    "AntennaHeight": 311,
    "MaxERP": "300 W",
    "LicenceNo": 1901419,
    "SiteName": "Broadcast/Comms Tower  Sydney Tower Westfield Centrepoint  100 Market Street SYDNEY",
    "Lat": -33.87055556,
    "Long": 151.2088889,
    "Site": "NSW",
    "FreqBlock": "9A",
    "BSL": "",
    "Licence Area": ""
  },
  {
    "AreaServed": "Sydney City",
    "Frequency": 204.64,
    "Purpose": "Category 1",
    "Polarity": "V",
    "AntennaHeight": 311,
    "MaxERP": "300 W",
    "LicenceNo": 1901420,
    "SiteName": "Broadcast/Comms Tower  Sydney Tower Westfield Centrepoint  100 Market Street SYDNEY",
    "Lat": -33.87055556,
    "Long": 151.2088889,
    "Site": "NSW",
    "FreqBlock": "9B",
    "BSL": "",
    "Licence Area": ""
  },
  {
    "AreaServed": "Sydney City",
    "Frequency": 206.352,
    "Purpose": "Category 3",
    "Polarity": "V",
    "AntennaHeight": 311,
    "MaxERP": "300 W",
    "LicenceNo": 1911855,
    "SiteName": "Broadcast/Comms Tower  Sydney Tower Westfield Centrepoint  100 Market Street SYDNEY",
    "Lat": -33.87055556,
    "Long": 151.2088889,
    "Site": "NSW",
    "FreqBlock": "9C",
    "BSL": "",
    "Licence Area": ""
  },
  {
    "AreaServed": "Sydney Northern Beaches",
    "Frequency": 202.928,
    "Purpose": "Category 1",
    "Polarity": "V",
    "AntennaHeight": 37,
    "MaxERP": "300 W",
    "LicenceNo": 1901419,
    "SiteName": "Broadcast/Comms (Optus) Tower  Sydney Water Board Site off Plateau Rd BILGOLA PLATEAU",
    "Lat": -33.64333333,
    "Long": 151.3144444,
    "Site": "NSW",
    "FreqBlock": "9A",
    "BSL": "",
    "Licence Area": ""
  },
  {
    "AreaServed": "Sydney Northern Beaches",
    "Frequency": 204.64,
    "Purpose": "Category 1",
    "Polarity": "V",
    "AntennaHeight": 37,
    "MaxERP": "300 W",
    "LicenceNo": 1901420,
    "SiteName": "Broadcast/Comms (Optus) Tower  Sydney Water Board Site off Plateau Rd BILGOLA PLATEAU",
    "Lat": -33.64333333,
    "Long": 151.3144444,
    "Site": "NSW",
    "FreqBlock": "9B",
    "BSL": "",
    "Licence Area": ""
  },
  {
    "AreaServed": "Sydney Northern Beaches",
    "Frequency": 206.352,
    "Purpose": "Category 3",
    "Polarity": "V",
    "AntennaHeight": 37,
    "MaxERP": "300 W",
    "LicenceNo": 1911855,
    "SiteName": "Broadcast/Comms (Optus) Tower  Sydney Water Board Site off Plateau Rd BILGOLA PLATEAU",
    "Lat": -33.64333333,
    "Long": 151.3144444,
    "Site": "NSW",
    "FreqBlock": "9C",
    "BSL": "",
    "Licence Area": ""
  },
  {
    "AreaServed": "Taroona",
    "Frequency": 206.352,
    "Purpose": "Category 3",
    "Polarity": "V",
    "AntennaHeight": 24,
    "MaxERP": "1 kW",
    "LicenceNo": 10224884,
    "SiteName": "Broadcast Australia Site White Rock Point OPOSSUM BAY",
    "Lat": -42.97611111,
    "Long": 147.3930556,
    "Site": "TAS",
    "FreqBlock": "9C",
    "BSL": "",
    "Licence Area": ""
  },
  {
    "AreaServed": "Tuggeranong",
    "Frequency": 206.352,
    "Purpose": "Category 3",
    "Polarity": "V",
    "AntennaHeight": 20,
    "MaxERP": "1 kW",
    "LicenceNo": 10224957,
    "SiteName": "FM Monopole  Broadcast Australia Site Tuggeranong Hill  off Callister Cres THEODORE",
    "Lat": -35.45333333,
    "Long": 149.1077778,
    "Site": "ACT",
    "FreqBlock": "9C",
    "BSL": "",
    "Licence Area": ""
  },
  {
    "AreaServed": "Werribee",
    "Frequency": 202.928,
    "Purpose": "Category 1",
    "Polarity": "V",
    "AntennaHeight": 83,
    "MaxERP": "500 W",
    "LicenceNo": 1901421,
    "SiteName": "East Mast 3CR Site Old Sneydes Road WERRIBEE",
    "Lat": -37.88638889,
    "Long": 144.7044444,
    "Site": "VIC",
    "FreqBlock": "9A",
    "BSL": "",
    "Licence Area": ""
  },
  {
    "AreaServed": "Werribee",
    "Frequency": 204.64,
    "Purpose": "Category 1",
    "Polarity": "V",
    "AntennaHeight": 83,
    "MaxERP": "500 W",
    "LicenceNo": 1901422,
    "SiteName": "East Mast 3CR Site Old Sneydes Road WERRIBEE",
    "Lat": -37.88638889,
    "Long": 144.7044444,
    "Site": "VIC",
    "FreqBlock": "9B",
    "BSL": "",
    "Licence Area": ""
  },
  {
    "AreaServed": "Werribee",
    "Frequency": 206.352,
    "Purpose": "Category 3",
    "Polarity": "V",
    "AntennaHeight": 83,
    "MaxERP": "500 W",
    "LicenceNo": 1911854,
    "SiteName": "East Mast 3CR Site Old Sneydes Road WERRIBEE",
    "Lat": -37.88638889,
    "Long": 144.7044444,
    "Site": "VIC",
    "FreqBlock": "9C",
    "BSL": "",
    "Licence Area": ""
  }
]
